[
  {
    "Campus": "LOY",
    "Building": "AD",
    "BuildingName": "AD Building",
    "Building Long Name": "Administration Building",
    "Address": "7141, Sherbrooke West",
    "Latitude": 45.457984,
    "Longitude": -73.639834,
    "Classrooms": []
  },
  {
    "Campus": "SGW",
    "Building": "B",
    "BuildingName": "B Building",
    "Building Long Name": "B Annex",
    "Address": "2160 Bishop Street",
    "Latitude": 45.497856,
    "Longitude": -73.579588,
    "Classrooms": []
  },
  {
    "Campus": "LOY",
    "Building": "BB",
    "BuildingName": "BB Building",
    "Building Long Name": "BB-BH Annex",
    "Address": "3502 Bermore Avenue",
    "Latitude": 45.459793,
    "Longitude": -73.639174,
    "Classrooms": []
  },
  {
    "Campus": "LOY",
    "Building": "BH",
    "BuildingName": "BH Building",
    "Building Long Name": "BB-BH Annex",
    "Address": "3500 Bermore Avenue",
    "Latitude": 45.459819,
    "Longitude": -73.639152,
    "Classrooms": []
  },
  {
    "Campus": "LOY",
    "Building": "CC",
    "BuildingName": "CC Building",
    "Building Long Name": "Central Building",
    "Address": "7141 Sherbrooke West",
    "Latitude": 45.458204,
    "Longitude": -73.6403,
    "Overlay Latitude": 45.45863873466155,
    "Overlay Longitude": -73.64075660705566,
    "Classrooms": []
  },
  {
    "Campus": "SGW",
    "Building": "CI",
    "BuildingName": "CI Building",
    "Building Long Name": "CI Annex",
    "Address": "2149 Mackay Street",
    "Latitude": 45.497467,
    "Longitude": -73.579925,
    "Classrooms": []
  },
  {
    "Campus": "LOY",
    "Building": "CJA",
    "BuildingName": "CJ Building - wing A",
    "Building Long Name": "Communication Studies and Journalism Building",
    "Address": "7141, Sherbrooke Wes",
    "Latitude": 45.457478,
    "Longitude": -73.640354,
    "Classrooms": []
  },
  {
    "Campus": "LOY",
    "Building": "CJN",
    "BuildingName": "CJ Building - wing N",
    "Building Long Name": "Communication Studies and Journalism Building",
    "Address": "7141, Sherbrooke Wes",
    "Latitude": 45.457478,
    "Longitude": -73.640354,
    "Classrooms": []
  },
  {
    "Campus": "LOY",
    "Building": "CJS",
    "BuildingName": "CJ Building - wing S",
    "Building Long Name": "Communication Studies and Journalism Building",
    "Address": "7141, Sherbrooke Wes",
    "Latitude": 45.457478,
    "Longitude": -73.640354,
    "Classrooms": []
  },
  {
    "Campus": "SGW",
    "Building": "CL",
    "BuildingName": "CL Building",
    "Building Long Name": "CL Annex",
    "Address": "1665 Ste-Catherine W",
    "Latitude": 45.494259,
    "Longitude": -73.579007,
    "Classrooms": []
  },
  {
    "Campus": "SGW",
    "Building": "D",
    "BuildingName": "D Building",
    "Building Long Name": "D Annex",
    "Address": "2140 Bishop Street",
    "Latitude": 45.497827,
    "Longitude": -73.579409,
    "Classrooms": []
  },
  {
    "Campus": "SGW",
    "Building": "EN",
    "BuildingName": "EN Building",
    "Building Long Name": "EN Annex",
    "Address": "2070 Mackay Street",
    "Latitude": 45.496944,
    "Longitude": -73.579555,
    "Classrooms": []
  },
  {
    "Campus": "SGW",
    "Building": "ER",
    "BuildingName": "ER Building",
    "Building Long Name": "ER Building",
    "Address": "2155 Guy Street",
    "Latitude": 45.496428,
    "Longitude": -73.57999,
    "Classrooms": []
  },
  {
    "Campus": "SGW",
    "Building": "ES",
    "BuildingName": "ES Building",
    "Building Long Name": "ES Building",
    "Address": "2135 Guy Street",
    "Latitude": 45.496172,
    "Longitude": -73.579922,
    "Classrooms": []
  },
  {
    "Campus": "SGW",
    "Building": "ET",
    "BuildingName": "ET Building",
    "Building Long Name": "ET Building",
    "Address": "2125-2127 Guy Street",
    "Latitude": 45.496163,
    "Longitude": -73.579904,
    "Classrooms": []
  },
  {
    "Campus": "SGW",
    "Building": "EV",
    "BuildingName": "EV Building",
    "Building Long Name": "Engineering, Computer Science and Visual Arts Integrated Complex",
    "Address": "1515 Ste-Catherine W",
    "Latitude": 45.495376,
    "Longitude": -73.577997,
    "Classrooms": []
  },
  {
    "Campus": "SGW",
    "Building": "FA",
    "BuildingName": "FA Building",
    "Building Long Name": "FA Annex",
    "Address": "2060 Mackay Street",
    "Latitude": 45.496874,
    "Longitude": -73.579468,
    "Classrooms": []
  },
  {
    "Campus": "SGW",
    "Building": "FB",
    "BuildingName": "FB Building",
    "Building Long Name": "Faubourg Building",
    "Address": "1250 Guy Street",
    "Latitude": 45.494666,
    "Longitude": -73.577603,
    "Classrooms": []
  },
  {
    "Campus": "LOY",
    "Building": "FC",
    "BuildingName": "FC Building",
    "Building Long Name": "F.C. Smith Building",
    "Address": "7141 Sherbrooke West",
    "Latitude": 45.458493,
    "Longitude": -73.639287,
    "Classrooms": []
  },
  {
    "Campus": "SGW",
    "Building": "FG",
    "BuildingName": "FG Building",
    "Building Long Name": "Faubourg Ste-Catherine Building",
    "Address": "1610 Ste-Catherine",
    "Latitude": 45.494381,
    "Longitude": -73.578425,
    "Classrooms": []
  },
  {
    "Campus": "SGW",
    "Building": "GA",
    "BuildingName": "GA Building",
    "Building Long Name": "Grey Nuns Annex",
    "Address": "1211 1215 St-Mathieu",
    "Latitude": 45.494123,
    "Longitude": -73.57787,
    "Classrooms": []
  },
  {
    "Campus": "LOY",
    "Building": "GE",
    "BuildingName": "GE Building",
    "Building Long Name": "Centre for Structural and Functional Genomics",
    "Address": "7141 Sherbrooke W",
    "Latitude": 45.457017,
    "Longitude": -73.640432,
    "Classrooms": []
  },
  {
    "Campus": "SGW",
    "Building": "GM",
    "BuildingName": "GM Building",
    "Building Long Name": "Guy-De Maisonneuve Building",
    "Address": "1550 DeMaisonneuve W",
    "Latitude": 45.495983,
    "Longitude": -73.578824,
    "Classrooms": []
  },
  {
    "Campus": "SGW",
    "Building": "GNA",
    "BuildingName": "GN Building - wing A",
    "Building Long Name": "Grey Nuns Building",
    "Address": "1190 Guy Street",
    "Latitude": 45.493622,
    "Longitude": -73.577003,
    "Classrooms": []
  },
  {
    "Campus": "SGW",
    "Building": "GNB",
    "BuildingName": "GN Building - wings B, C, D, E, F, G, P",
    "Building Long Name": "Grey Nuns Building",
    "Address": "1190 Guy Street",
    "Latitude": 45.493622,
    "Longitude": -73.577003,
    "Classrooms": []
  },
  {
    "Campus": "SGW",
    "Building": "GNH",
    "BuildingName": "GN Building - wings H, I, J, K",
    "Building Long Name": "Grey Nuns Building",
    "Address": "1190 Guy Street",
    "Latitude": 45.493622,
    "Longitude": -73.577003,
    "Classrooms": []
  },
  {
    "Campus": "SGW",
    "Building": "GNL",
    "BuildingName": "GN Building - wings L, M, N",
    "Building Long Name": "Grey Nuns Building",
    "Address": "1190 Guy Street",
    "Latitude": 45.493622,
    "Longitude": -73.577003,
    "Classrooms": []
  },
  {
    "Campus": "SGW",
    "Building": "GS",
    "BuildingName": "GS Building",
    "Building Long Name": "Guy-Sherbrooke Building",
    "Address": "1538, Sherbrooke W",
    "Latitude": 45.496673,
    "Longitude": -73.581409,
    "Classrooms": []
  },
  {
    "Campus": "SGW",
    "Building": "H",
    "BuildingName": "H Building",
    "Building Long Name": "Henry F. Hall Building",
    "Address": "1455 DeMaisonneuve W",
    "Latitude": 45.497092,
    "Longitude": -73.5788,
    "Overlay Latitude": 45.497773,
    "Overlay Longitude": -73.579055,
    "Classrooms": [
      "H 110",
      "H 120",
      "H 125",
      "H 114",
      "H 124",
      "H 112",
      "H 122",
      "H 190",
      "H 150",
      "H 0052",
      "H 118",
      "H 127",
      "H 126",
      "H 109",
      "H 231",
      "H 252",
      "H 260",
      "H 239",
      "H 802 01",
      "H 871",
      "H 860 03",
      "H 860 01",
      "H 806 02",
      "H 860 06",
      "H 860 05",
      "H 806 01",
      "H 860 04",
      "H 838 01",
      "H 838",
      "H 833",
      "H 831",
      "H 837",
      "H 851 02",
      "H 835",
      "H 851 03",
      "H 805 03",
      "H 840",
      "H 881",
      "H 805 02",
      "H 805 01",
      "H 807",
      "H 849",
      "H 843",
      "H 842",
      "H 841",
      "H 804",
      "H 803",
      "H 847",
      "H 802",
      "H 801",
      "H 845",
      "H 819",
      "H 817",
      "H 811",
      "H 855",
      "H 810",
      "H 854",
      "H 853",
      "H 852",
      "H 815",
      "H 859",
      "H 832 03",
      "H 813",
      "H 857",
      "H 832 01",
      "H 856",
      "H 832 02",
      "H 851 01",
      "H 832 06",
      "H 862",
      "H 861",
      "H 829",
      "H 827",
      "H 822",
      "H 865",
      "H 821",
      "H 820",
      "H 863",
      "H 825",
      "H 867",
      "H 823",
      "H 802 01",
      "H 871",
      "H 860 03",
      "H 860 01",
      "H 806 02",
      "H 860 06",
      "H 860 05",
      "H 806 01",
      "H 860 04",
      "H 838 01",
      "H 838",
      "H 833",
      "H 831",
      "H 837",
      "H 851 02",
      "H 835",
      "H 851 03",
      "H 805 03",
      "H 840",
      "H 881",
      "H 805 02",
      "H 805 01",
      "H 807",
      "H 849",
      "H 843",
      "H 842",
      "H 841",
      "H 804",
      "H 803",
      "H 847",
      "H 802",
      "H 801",
      "H 845",
      "H 819",
      "H 817",
      "H 811",
      "H 855",
      "H 810",
      "H 854",
      "H 853",
      "H 852",
      "H 815",
      "H 859",
      "H 832 03",
      "H 813",
      "H 857",
      "H 832 01",
      "H 856",
      "H 832 02",
      "H 851 01",
      "H 832 06",
      "H 862",
      "H 861",
      "H 829",
      "H 827",
      "H 822",
      "H 865",
      "H 821",
      "H 820",
      "H 863",
      "H 825",
      "H 867",
      "H 823",
      "H 961 25",
      "H 961 27",
      "H 961 26",
      "H 961 29",
      "H 961 28",
      "H 917",
      "H 915",
      "H 962 1",
      "H 919",
      "H 910",
      "H 961 30",
      "H 914",
      "H 961 32",
      "H 913",
      "H 961 31",
      "H 966 2",
      "H 961 34",
      "H 911",
      "H 966 1",
      "H 961 33",
      "H 961 14",
      "H 961 13",
      "H 961 15",
      "H 960",
      "H 961 17",
      "H 961 19",
      "H 929",
      "H 928",
      "H 927",
      "H 921",
      "H 964",
      "H 920",
      "H 963",
      "H 962",
      "H 961 21",
      "H 933 2",
      "H 968",
      "H 933 1",
      "H 967",
      "H 923",
      "H 961 23",
      "H 966",
      "H 961 07",
      "H 933 11",
      "H 961 4",
      "H 961 3",
      "H 961 2",
      "H 937",
      "H 961 1",
      "H 925 3",
      "H 927 1",
      "H 932",
      "H 925 2",
      "H 931",
      "H 927 3",
      "H 961 9",
      "H 961 10",
      "H 961 8",
      "H 925 1",
      "H 961 7",
      "H 961 12",
      "H 961 6",
      "H 961 11",
      "H 933",
      "H 927 4",
      "H 981",
      "H 980",
      "H 907",
      "H 906",
      "H 909",
      "H 908",
      "H 986",
      "H 929 25",
      "H 941",
      "H 903",
      "H 902",
      "H 945"
    ]
  },
  {
    "Campus": "LOY",
    "Building": "HA",
    "BuildingName": "HA Building",
    "Building Long Name": "Hingston Hall, wing HA",
    "Address": "7141 Sherbrooke West",
    "Latitude": 45.459356,
    "Longitude": -73.64127,
    "Classrooms": []
  },
  {
    "Campus": "LOY",
    "Building": "HB",
    "BuildingName": "HB Building",
    "Building Long Name": "Hingston Hall, wing HB",
    "Address": "7141 Sherbrooke West",
    "Latitude": 45.459308,
    "Longitude": -73.641849,
    "Classrooms": []
  },
  {
    "Campus": "LOY",
    "Building": "HC",
    "BuildingName": "HC Building",
    "Building Long Name": "Hingston Hall, wing HC",
    "Address": "7141 Sherbrooke West",
    "Latitude": 45.459663,
    "Longitude": -73.64208,
    "Classrooms": []
  },
  {
    "Campus": "LOY",
    "Building": "HU",
    "BuildingName": "HU Building",
    "Building Long Name": "Applied Science Hub",
    "Address": "7141, Sherbrooke W",
    "Latitude": 45.458513,
    "Longitude": -73.641921,
    "Classrooms": []
  },
  {
    "Campus": "LOY",
    "Building": "JR",
    "BuildingName": "JR Building",
    "Building Long Name": "Jesuit Residence",
    "Address": "7141 Sherbrooke West",
    "Latitude": 45.458432,
    "Longitude": -73.643235,
    "Classrooms": []
  },
  {
    "Campus": "SGW",
    "Building": "K",
    "BuildingName": "K Building",
    "Building Long Name": "K Annex",
    "Address": "2150 Bishop Street",
    "Latitude": 45.497777,
    "Longitude": -73.579531,
    "Classrooms": []
  },
  {
    "Campus": "SGW",
    "Building": "LB",
    "BuildingName": "LB Building",
    "Building Long Name": "J.W. McConnell Building",
    "Address": "1400 DeMaisonneuve W",
    "Latitude": 45.49705,
    "Longitude": -73.578009,
    "Classrooms": []
  },
  {
    "Campus": "SGW",
    "Building": "LC",
    "BuildingName": "LC Building",
    "Building Long Name": "LC Building",
    "Address": "1426 Bishop Street",
    "Latitude": 45.496782,
    "Longitude": -73.577358,
    "Classrooms": []
  },
  {
    "Campus": "SGW",
    "Building": "LD",
    "BuildingName": "LD Building",
    "Building Long Name": "LD Building",
    "Address": "1424 Bishop Street",
    "Latitude": 45.496697,
    "Longitude": -73.577312,
    "Classrooms": []
  },
  {
    "Campus": "SGW",
    "Building": "M",
    "BuildingName": "M Building",
    "Building Long Name": "M Annex",
    "Address": "2135 Mackay Street",
    "Latitude": 45.497368,
    "Longitude": -73.579777,
    "Classrooms": []
  },
  {
    "Campus": "SGW",
    "Building": "MB",
    "BuildingName": "MB Building",
    "Building Long Name": "John Molson Building",
    "Address": "1450 Guy Street",
    "Latitude": 45.495304,
    "Longitude": -73.579044,
    "Overlay Latitude": 45.49575150228435,
    "Overlay Longitude": -73.5789343714714,
    "Classrooms": [
      "MS1 340",
      "MS1 350",
      "MS1 130",
      "MS1 265",
      "MS1 210",
      "MS1 430",
      "MS1 275",
      "MS1 309",
      "MS1 410",
      "MS1 134",
      "MS1 335",
      "MS1 115",
      "MS1 345",
      "MS1 301",
      "MS1 315",
      "MS1 424",
      "MS1 426",
      "MS1 437",
      "MSS2 285",
      "MSS2 105",
      "MSS2 148",
      "MSS2 401",
      "MSS2 445",
      "MSS2 245",
      "MSS2 146",
      "MSS2 465",
      "MSS2 145",
      "MSS2 420",
      "MSS2 440",
      "MSS2 418",
      "MSS2 437",
      "MSS2 230",
      "MSS2 273",
      "MSS2 315",
      "MSS2 435",
      "MSS2 115",
      "MSS2 455",
      "MSS2 410",
      "MSS2 277",
      "MSS2 255",
      "MSS2 210",
      "MSS2 275",
      "MSS2 330"
    ]
  },
  {
    "Campus": "SGW",
    "Building": "MI",
    "BuildingName": "MI Building",
    "Building Long Name": "MI Annex",
    "Address": "2130 Bishop Street",
    "Latitude": 45.497807,
    "Longitude": -73.579261,
    "Classrooms": []
  },
  {
    "Campus": "SGW",
    "Building": "MK",
    "BuildingName": "MK Building",
    "Building Long Name": "MK Annex",
    "Address": "2000-20002 Mackay St",
    "Latitude": 45.496606,
    "Longitude": -73.579025,
    "Classrooms": []
  },
  {
    "Campus": "SGW",
    "Building": "MM",
    "BuildingName": "MM Building",
    "Building Long Name": "MM Annex",
    "Address": "1209 Guy Street",
    "Latitude": 45.494665,
    "Longitude": -73.576365,
    "Classrooms": []
  },
  {
    "Campus": "SGW",
    "Building": "MN",
    "BuildingName": "MN Building",
    "Building Long Name": "MN Annex",
    "Address": "1205-1207 Guy Street",
    "Latitude": 45.494568,
    "Longitude": -73.576315,
    "Classrooms": []
  },
  {
    "Campus": "SGW",
    "Building": "MT",
    "BuildingName": "MT Building",
    "Building Long Name": "Montefiore Building",
    "Address": "1195 Guy Street",
    "Latitude": 45.494442,
    "Longitude": -73.576108,
    "Classrooms": []
  },
  {
    "Campus": "SGW",
    "Building": "MU",
    "BuildingName": "MU Building",
    "Building Long Name": "MU Annex",
    "Address": "2170 Bishop Street",
    "Latitude": 45.497963,
    "Longitude": -73.579506,
    "Classrooms": []
  },
  {
    "Campus": "SGW",
    "Building": "P",
    "BuildingName": "P Building",
    "Building Long Name": "P Annex",
    "Address": "2020 Mackay Street",
    "Latitude": 45.496745,
    "Longitude": -73.579113,
    "Classrooms": []
  },
  {
    "Campus": "LOY",
    "Building": "PB",
    "BuildingName": "PB Building",
    "Building Long Name": "PB Building",
    "Address": "7200 Sherbrooke W",
    "Latitude": 45.456534,
    "Longitude": -73.638106,
    "Classrooms": []
  },
  {
    "Campus": "LOY",
    "Building": "PC",
    "BuildingName": "PC Building",
    "Building Long Name": "PERFORM centre",
    "Address": "7200 Sherbrooke W",
    "Latitude": 45.457088,
    "Longitude": -73.637683,
    "Classrooms": []
  },
  {
    "Campus": "SGW",
    "Building": "PR",
    "BuildingName": "PR Building",
    "Building Long Name": "PR Annex",
    "Address": "2100 Mackay Street",
    "Latitude": 45.497066,
    "Longitude": -73.57979,
    "Classrooms": []
  },
  {
    "Campus": "LOY",
    "Building": "PS",
    "BuildingName": "PS Building",
    "Building Long Name": "Physical Services Building",
    "Address": "7141 Sherbrooke W",
    "Latitude": 45.459636,
    "Longitude": -73.639758,
    "Classrooms": []
  },
  {
    "Campus": "LOY",
    "Building": "PT",
    "BuildingName": "PT Building",
    "Building Long Name": "Oscar Peterson Concert Hall",
    "Address": "7141 Sherbrooke W",
    "Latitude": 45.459308,
    "Longitude": -73.638941,
    "Classrooms": []
  },
  {
    "Campus": "LOY",
    "Building": "PY",
    "BuildingName": "PY Building",
    "Building Long Name": "Psychology Building",
    "Address": "7141 Sherbrooke W",
    "Latitude": 45.458938,
    "Longitude": -73.640467,
    "Classrooms": []
  },
  {
    "Campus": "SGW",
    "Building": "Q",
    "BuildingName": "Q Building",
    "Building Long Name": "Q Annex",
    "Address": "2010 Mackay Street",
    "Latitude": 45.496648,
    "Longitude": -73.579094,
    "Classrooms": []
  },
  {
    "Campus": "SGW",
    "Building": "R",
    "BuildingName": "R Building",
    "Building Long Name": "R Annex",
    "Address": "2050 Mackay Street",
    "Latitude": 45.496826,
    "Longitude": -73.579389,
    "Classrooms": []
  },
  {
    "Campus": "LOY",
    "Building": "RA",
    "BuildingName": "RA Building",
    "Building Long Name": "Recreation and Athletics Complex",
    "Address": "7200 Sherbrooke W",
    "Latitude": 45.456774,
    "Longitude": -73.63761,
    "Classrooms": []
  },
  {
    "Campus": "LOY",
    "Building": "RF",
    "BuildingName": "RF Building",
    "Building Long Name": "Loyola Jesuit Hall and Conference Centre",
    "Address": "7141 Sherbrooke W",
    "Latitude": 45.458489,
    "Longitude": -73.641028,
    "Classrooms": []
  },
  {
    "Campus": "SGW",
    "Building": "RR",
    "BuildingName": "RR Building",
    "Building Long Name": "RR Annex",
    "Address": "2040 Mackay Street",
    "Latitude": 45.496796,
    "Longitude": -73.579259,
    "Classrooms": []
  },
  {
    "Campus": "SGW",
    "Building": "S",
    "BuildingName": "S Building",
    "Building Long Name": "S Annex",
    "Address": "2145 Mackay Street",
    "Latitude": 45.497423,
    "Longitude": -73.579851,
    "Classrooms": []
  },
  {
    "Campus": "SGW",
    "Building": "SB",
    "BuildingName": "SB Building",
    "Building Long Name": "Samuel Bronfman Building",
    "Address": "1590 Doctor Penfield",
    "Latitude": 45.4966,
    "Longitude": -73.58609,
    "Classrooms": []
  },
  {
    "Campus": "LOY",
    "Building": "SC",
    "BuildingName": "SC Building",
    "Building Long Name": "Student Centre",
    "Address": "7141 Sherbrooke W",
    "Latitude": 45.459131,
    "Longitude": -73.639251,
    "Classrooms": []
  },
  {
    "Campus": "LOY",
    "Building": "SH",
    "BuildingName": "SH Building",
    "Building Long Name": "Solar House",
    "Address": "7141 Sherbrooke W",
    "Latitude": 45.459298,
    "Longitude": -73.642478,
    "Classrooms": []
  },
  {
    "Campus": "LOY",
    "Building": "SP",
    "BuildingName": "SP Building",
    "Building Long Name": "Richard J. Renaud Science Complex",
    "Address": "7141 Sherbrooke W",
    "Latitude": 45.457881,
    "Longitude": -73.641565,
    "Classrooms": []
  },
  {
    "Campus": "SGW",
    "Building": "T",
    "BuildingName": "T Building",
    "Building Long Name": "T Annex",
    "Address": "2030 Mackay Street",
    "Latitude": 45.49671,
    "Longitude": -73.57927,
    "Classrooms": []
  },
  {
    "Campus": "LOY",
    "Building": "TA",
    "BuildingName": "TA Building",
    "Building Long Name": "Terrebonne Building",
    "Address": "7079 Terrebonne",
    "Latitude": 45.459992,
    "Longitude": -73.640897,
    "Classrooms": []
  },
  {
    "Campus": "LOY",
    "Building": "TB",
    "BuildingName": "TB Building",
    "Building Long Name": "TB Annex",
    "Address": "7075 Terrebonne",
    "Latitude": 45.460051,
    "Longitude": -73.640842,
    "Classrooms": []
  },
  {
    "Campus": "SGW",
    "Building": "TD",
    "BuildingName": "TD Building",
    "Building Long Name": "Toronto-Dominion Building",
    "Address": "1410 Guy Street",
    "Latitude": 45.495103,
    "Longitude": -73.578375,
    "Classrooms": []
  },
  {
    "Campus": "SGW",
    "Building": "TU",
    "BuildingName": "TU Building",
    "Building Long Name": "TU Tunnel",
    "Address": "1550 DeMaisonneuve",
    "Latitude": 45.49648,
    "Longitude": -73.578918,
    "Classrooms": []
  },
  {
    "Campus": "SGW",
    "Building": "V",
    "BuildingName": "V Building",
    "Building Long Name": "V Annex",
    "Address": "2110 Mackay Street",
    "Latitude": 45.497101,
    "Longitude": -73.579907,
    "Classrooms": []
  },
  {
    "Campus": "SGW",
    "Building": "VA",
    "BuildingName": "VA Building",
    "Building Long Name": "Visual Arts Building",
    "Address": "1395 Rene Levesque W",
    "Latitude": 45.495543,
    "Longitude": -73.573795,
    "Classrooms": []
  },
  {
    "Campus": "LOY",
    "Building": "VE",
    "BuildingName": "VE Building",
    "Building Long Name": "Vanier Extension",
    "Address": "7141 Sherbrooke W",
    "Latitude": 45.459026,
    "Longitude": -73.638606,
    "Classrooms": []
  },
  {
    "Campus": "LOY",
    "Building": "VL",
    "BuildingName": "VL Building",
    "Building Long Name": "Vanier Library Building",
    "Address": "7141 Sherbrooke W",
    "Latitude": 45.459026,
    "Longitude": -73.638606,
    "Overlay Latitude": 45.45890400660071,
    "Overlay Longitude": -73.63919287919998,
    "Classrooms": []
  },
  {
    "Campus": "SGW",
    "Building": "X",
    "BuildingName": "X Building",
    "Building Long Name": "X Annex",
    "Address": "2080 Mackay Street",
    "Latitude": 45.49694,
    "Longitude": -73.579593,
    "Classrooms": []
  },
  {
    "Campus": "SGW",
    "Building": "Z",
    "BuildingName": "Z Building",
    "Building Long Name": "Z Annex",
    "Address": "2090 Mackay Street",
    "Latitude": 45.496981,
    "Longitude": -73.579705,
    "Classrooms": []
  }
]